연번,검체채취 가능여부,시도,시군구,의료기관명,주소,대표 전화번호,위도,경도
1,Y,서울,강남구,강남구보건소,서울특별시 강남구 선릉로 668 (삼성동),02-3423-5555,37.5162581,127.04221400000002
2,Y,서울,강남구,삼성서울병원,"서울특별시 강남구 일원로 81 (일원동, 삼성의료원)",02-3410-2114,37.4881568,127.08559519999999
3,Y,서울,강남구,연세대학교의과대학강남세브란스병원,"서울특별시 강남구 언주로 211, 강남세브란스병원 (도곡동)",02-2019-3114,37.4927454,127.0463152
4,Y,서울,강동구,강동경희대학교의대병원,서울특별시 강동구 동남로 892 (상일동),02-440-7000,37.5534841,127.1576468
5,Y,서울,강동구,강동구보건소,서울특별시 강동구 성내로 45 (성내동),02-3425-8565,37.5293701,127.1255567
6,Y,서울,강동구,성심의료재단강동성심병원,서울특별시 강동구 성안로 150 (길동),02-2224-2358,37.5361,127.1353505
7,Y,서울,강동구,한국보훈복지의료공단중앙보훈병원,서울특별시 강동구 진황도로61길 53 (둔촌동),02-2225-1100,37.528777999999996,127.14760659999999
8,Y,서울,강북구,강북구보건소,"서울특별시 강북구 한천로 897 (번동, 강북보건소,번2동주민센터)","02-901-7706,02-901-7704",37.632083400000006,127.03876729999999
9,Y,서울,강서구,강서구보건소,"서울특별시 강서구 공항대로 561 (염창동, 강서보건소)",02-2600-5868,37.549605299999996,126.868277
10,Y,서울,강서구,이화여자대학교의과대학부속서울병원,"서울특별시 강서구 공항대로 260, 이화여자대학교 제2부속병원 (마곡동)",1522-7000,37.5764888,126.83074660000001
11,Y,서울,관악구,관악구보건소,서울특별시 관악구 관악로 145 (봉천동),02-879-7131,37.478321,126.95121379999999
12,N,서울,관악구,관악구보건소 신사동 코로나19 건강상담소,서울특별시 관악구 조원로 142,02-879-7241,37.4853658,126.9180914
13,Y,서울,관악구,에이치플러스양지병원,"서울특별시 관악구 남부순환로 1636, 양지병원 (신림동)",02-1877-8875,37.484216599999996,126.9325109
14,Y,서울,광진구,광진구보건소,서울특별시 광진구 자양로 117 (자양동),02-450-1937,37.53837420000001,127.0822077
15,N,서울,광진구,광진구보건소 자양보건지소,서울특별시 광진구 아차산로24길 17 ,02-450-7090,37.5401932,127.0650671
16,Y,서울,광진구,건국대학교병원,서울특별시 광진구 능동로 120-1 (화양동),02-1588-1533,37.544893699999996,127.07130929999998
17,Y,서울,구로구,구로구보건소,"서울특별시 구로구 구로중앙로28길 66 (구로동, 구로5동 주민센터, 구로구보건소)",02-860-2003,37.500076,126.8893241
18,Y,서울,구로구,구로구보건소 가리봉동선별진료소,서울특별시 구로구 우마2길 35,02-860-2018,37.482450299999996,126.8897691
19,Y,서울,구로구,고려대학교의과대학부속구로병원,"서울특별시 구로구 구로동로 148, 고려대부속구로병원 (구로동)",02-2626-1114,37.4922173,126.88494779999999
20,Y,서울,금천구,금천구보건소,"서울특별시 금천구 시흥대로73길 70 (시흥동, 금천구보건소)",02-2627-2717,37.4570498,126.8959514
21,N,서울,금천구,독산보건분소,서울 금천구 독산로 87길 27,02-2627-1967,37.4736212,126.9022161
22,Y,서울,노원구,노원구보건소,서울특별시 노원구 노해로 437 (상계동),02-2116-3300~4,37.6540782,127.0566045
23,Y,서울,노원구,노원을지대학교병원,"서울특별시 노원구 한글비석로 68, 을지병원 (하계동)",02-970-8000,37.636417,127.069959
24,Y,서울,노원구,인제대학교상계백병원,"서울특별시 노원구 동일로 1342, 상계백병원 (상계동)",02-950-1114,37.6485082,127.0631429
25,Y,서울,도봉구,도봉구보건소,"서울특별시 도봉구 방학로3길 117 (쌍문동, 도봉보건소)",02-2091-4483,37.6579331,127.0387799
26,Y,서울,동대문구,동대문구보건소,서울특별시 동대문구 천호대로 145 (용두동),02-2127-4283,37.5786802,127.03063879999999
27,Y,서울,동대문구,경희대학교병원,서울특별시 동대문구 경희대로 23 (회기동),02-958-8114,37.5953632,127.05276119999998
28,Y,서울,동대문구,삼육서울병원,서울특별시 동대문구 망우로 82 (휘경동),1577-3675,37.5892778,127.06454180000001
29,Y,서울,동대문구,서울특별시동부병원,서울특별시 동대문구 무학로 124 ,02-920-9118~9,37.575312,127.03151
30,N,서울,동대문구,서울성심병원,서울 동대문구 왕산로 259,02-966-1616,37.584392,127.0497209
31,Y,서울,동작구,동작구보건소,서울특별시 동작구 장승배기로10길 42 (상도동),02-820-9465,37.504397499999996,126.94104659999999
32,N,서울,동작구,동작구보건소 신대방선별진료소,서울특별시 동작구 시흥대로 670,02-832-9404,37.4914483,126.9091212
33,Y,서울,동작구,보라매병원,서울특별시 동작구 보라매로5길 20 (신대방동),02-870-2114,37.4932234,126.9244612
34,Y,서울,마포구,마포구보건소,"서울특별시 마포구 월드컵로 212 (성산동, 마포구보건소)",02-3153-9037,37.5663123,126.90207980000001
35,Y,서울,서대문구,서대문구보건소,서울특별시 연희로 242,02-330-8726,37.5785747,126.9362575
36,Y,서울,서대문구,학교법인연세대학교의과대학세브란스병원,서울특별시 서대문구 연세로 50-1 (신촌동),1599-1004,37.564088999999996,126.93898089999999
37,Y,서울,서초구,서초구보건소,서울특별시 서초구 남부순환로 2584 (서초동),02-2155-8093,37.483587199999995,127.0326987
38,Y,서울,서초구,학교법인가톨릭학원가톨릭대학교서울성모병원,서울특별시 서초구 반포대로 222 (반포동),02-1588-1511,37.5003974,127.00665989999999
39,Y,서울,서초구,서울특별시 어린이병원,서울특별시 서초구 헌릉로 260,02-570-8000,37.4554808,127.0688387
40,Y,서울,성동구,성동구보건소,서울특별시 성동구 마장로23길 10 (홍익동),02-2286-7172,37.5674274,127.0329852
41,Y,서울,성동구,한양대학교병원,서울특별시 성동구 왕십리로 222-1 (사근동),02-2290-8114,37.562291699999996,127.0468607
42,Y,서울,성북구,성북구보건소,서울특별시 성북구 화랑로 63 (하월곡동),02-2241-6022,37.603999099999996,127.038768
43,Y,서울,성북구,(학)고려대학교의과대학부속병원(안암병원),"서울특별시 성북구 고려대로 73, 고려대병원 (안암동5가)",02-1577-0083,37.587012699999995,127.02688359999999
44,Y,서울,송파구,송파구보건소,서울특별시 송파구 올림픽로 326 (신천동),02-2147-3478~9,37.514542999999996,127.10654199999999
45,Y,서울,송파구,재단법인아산사회복지재단서울아산병원,"서울특별시 송파구 올림픽로43길 88, 서울아산병원 (풍납동)",02-3010-3114,37.526922,127.108381
46,Y,서울,송파구,경찰병원,서울특별시 송파구 송이로 123,02-3400-1933,37.4964365,127.12336239999998
47,Y,서울,양천구,양천구보건소,서울특별시 양천구 목동서로 339 (신정동),02-2620-3856,37.5175443,126.8658971
48,Y,서울,양천구,서울특별시 서남병원,서울특별시 양천구 신정이펜1로 20,1566-6688,37.511972199999995,126.83322219999998
49,Y,서울,양천구,이화여자대학교의과대학부속목동병원,서울특별시 양천구 안양천로 1071 (목동),02-1666-5000,37.53637940000001,126.8864324
50,Y,서울,영등포구,영등포구보건소,"서울특별시 영등포구 당산로 123 (당산동3가, 영등포구청)",02-2670-4953,37.526344,126.896256
51,Y,서울,영등포구,한림대학교강남성심병원,"서울특별시 영등포구 신길로 1 (대림동, 강남성심병원)",02-829-5114,37.492737,126.908812
52,Y,서울,영등포구,가톨릭대학교 여의도성모병원,서울특별시 영등포구 63로 10,02-1661-7575,37.5179713,126.936089
53,Y,서울,영등포구,성애의료재단성애병원,"서울특별시 영등포구 여의대방로53길 22 (신길동, 성애병원)",02-840-7114,37.5119571,126.92239319999999
54,N,서울,영등포구,명지성모병원,서울특별시 영등포구도림로 156,02-829-7800,37.4938274,126.8992573
55,Y,서울,용산구,용산구보건소,"서울특별시 용산구 녹사평대로 150 (이태원동, 용산구종합행정타운)",02-2199-8371~4,37.5323504,126.99036129999999
56,Y,서울,용산구,순천향대학교 부속 서울병원,서울특별시 용산구 대사관로 59 (한남동),02-709-9114,37.5339355,127.00433360000001
57,Y,서울,은평구,은평구보건소,서울특별시 은평구 은평로 195 (녹번동),02-351-8640,37.6024515,126.92933109999998
58,Y,서울,은평구,서울특별시립 서북병원,서울특별시 은평구 갈현로7길 49,02-3156-3022,37.6041552,126.90487030000001
59,Y,서울,은평구,서울특별시 은평병원,서울특별시 은평구 백련산로 90,02-300-8060,37.593765100000006,126.92363069999998
60,Y,서울,은평구,가톨릭대학교 은평성모병원,서울특별시 은평구 통일로 1021 (진관동),02-958-2114,37.6331979,126.92022179999998
61,Y,서울,종로구,종로구보건소,서울특별시 종로구 자하문로19길 36 (옥인동),02-2148-3557,37.5817774,126.96925080000001
62,Y,서울,종로구,강북삼성병원,서울특별시 종로구 새문안로 29 (평동),02-2001-2001,37.5688719,126.96807749999998
63,Y,서울,종로구,서울적십자병원,서울시 종로구 평동 164,02-2002-8650,37.5671402,126.96705659999999
64,Y,서울,중구,인제대학교서울백병원,서울특별시 중구 마른내로 9 (저동2가),02-2270-0114,37.5653509,126.99094020000001
65,Y,서울,중구,중구보건소,서울특별시 중구 다산로39길 16 (무학동),02-3396-5181,37.5645735,127.01506859999999
66,N,서울,중구,중구보건소 명동선별상담소,서울특별시 중구 퇴계로115,02-3396-5181,37.5610141,126.98450969999999
67,Y,서울,중랑구,중랑구보건소,서울특별시 중랑구 봉화산로 179 (신내동),02-2094-0800,37.60630460000001,127.0931523
68,Y,서울,중랑구,서울의료원,서울특별시 중랑구 신내로 156,02-2276-8333,37.613036,127.09841340000001
69,Y,부산,강서구,강서구보건소, 강서구 공항로811번길 10,051-970-3415,35.1804359,128.95719929999998
70,N,부산,강서구,갑을녹산병원, 강서구 녹산산단 321로 24-8,051-974-8449,35.0906026,128.8533057
71,Y,부산,금정구,금정구보건소, 금정구 중앙대로 1777,051-519-5051,35.2428426,129.0921739
72,Y,부산,금정구,세웅병원,부산광역시 금정구 서동로 162(서동),051-500-9700,35.214399,129.1040842
73,Y,부산,기장군,동남권원자력의원,기장군 장안읍 좌동길40,051-720-5114,35.321483199999996,129.24361299999998
74,Y,부산,기장군,기장군보건소,기장군 기장읍 기장대로 560,051-709-4796,35.243522299999995,129.22296559999998
75,Y,부산,남구,남구 보건소, 남구 못골로 23(대연동),051-607-6460,35.1360966,129.08497140000003
76,N,부산,남구,부산성모병원, 남구 용호로 232번길 25-14,051-933-7119,35.110167,129.10920000000002
77,Y,부산,동구,봉생병원,부산 동구 중앙대로401,051-664-4000,35.1309523,129.0503957
78,Y,부산,동구,동구보건소,부산 동구 구청로 1 (수정동),051-440-6500,35.129335,129.04542329999998
79,Y,부산,동구,좋은문화병원,부산광역시 동구 범일로 119(범일동),051-644-2002,35.1407228,129.058962
80,Y,부산,동래구,대동병원,동래구 충렬대로 187 (명륜동),051-554-1233,35.2095372,129.08361150000002
81,Y,부산,동래구,동래구보건소 , 동래구 명륜로187번길 56 (명륜동) ,051-555-4000,35.2114121,129.0798725
82,Y,부산,부산진구,인제대학교부산백병원,부산진구 복지로 75,051-890-8933,35.1462564,129.02084010000002
83,Y,부산,부산진구,부산진구보건소,부산진구 황령대로8번길 36,051-645-4000,35.146212399999996,129.0598705
84,N,부산,부산진구,온종합병원,부산진구 가야대로 721,051-607-0139,35.1578057,129.0499681
85,N,부산,부산진구,동의병원,부산진구 양정로 62,051-850-8777,35.1704973,129.0771742
86,N,부산,부산진구,춘해병원,부산진구 중앙대로 605,051-608-0119,35.1469735,129.0583856
87,Y,부산,북구,북구보건소,북구 금곡대로 348,051-309-4500,35.239230899999995,129.01469649999999
88,Y,부산,북구,의료법인 인당의료재단 부민병원,북구 만덕대로 59,051-330-3000,35.2119687,129.01123909999998
89,N,부산,북구,구포성심병원,부산 북구 낙동대로 1786(구포동) ,051-330-2001,35.2095944,129.0045343
90,Y,부산,사상구,사상구보건소,사상구 학감대로 242,051-310-4791,35.1524223,128.9915872
91,Y,부산,사상구,좋은삼선병원,사상구 가야대로 326 (주례동),051-322-0900,35.15014790000001,129.0077859
92,Y,부산,사하구,사하구보건소,하신번영로127번길 2(신평동),051-220-5701,35.094210499999996,128.9594902
93,Y,부산,서구,서구 보건소,부용로 30,051-242-4000,35.1074773,129.018066
94,Y,부산,서구,동아대학교병원,서구 대신공원로 26,051-240-2400,35.120294,129.0179994
95,Y,부산,서구,고신대학교복음병원,서구 감천로 262,051-990-3233,35.0807796,129.01441599999998
96,Y,부산,서구,삼육부산병원,서구 대티로 170,051-600-7575,35.112519,129.01126929999998
97,Y,부산,수영구,좋은강안병원, 수영구 수영로 493,051-625-0900,35.149963899999996,129.1104981
98,Y,부산,수영구,비에이치에스한서병원,수영로 615(광안동),051-756-0081,35.1608916,129.11313049999998
99,Y,부산,수영구,수영구보건소, 수영구 수영로 637-5,051-752-4000,35.1625586,129.1134858
100,Y,부산,연제구,연제구보건소,연제구 연제로 2,051-665-4781,35.1764508,129.0794122
101,Y,부산,영도구,영도구보건소, 영도구 태종로 423,051-419-4931,35.0905318,129.0677628
102,Y,부산,영도구,영도병원,부산시 영도구 태종로 85,051-419-7881,35.0922458,129.0405355
103,Y,부산,영도구,해동병원,부산시 영도구 태종로 133(봉래동 3가),051-410-6682,35.094470199999996,129.0443453
104,Y,부산,중구,중구 보건소,중구 중구로 120,051-600-4741,35.1063286,129.0322904
105,Y,부산,중구,메리놀병원,중구 중구로 121,"(주)051- 461-2348,(야)051- 461-2300",35.1073029,129.0323992
106,Y,부산,해운대구,해운대구보건소,해운대구 양운로37번길 59,051-746-4000,35.164069999999995,129.1788626
107,Y,부산,해운대구,해운대부민병원,해운대구 해운대로584,051-602-8000,35.161368599999996,129.1558441
108,Y,부산,해운대구,인제대학교해운대백병원,해운대구 해운대로 875,051-797-0119,35.1733441,129.1822042
109,Y,대구,남구,영남대학교병원,대구시 남구 현충로 170(대명동),"053-623-8001,053-620-3332",35.8469571,128.5827831
110,Y,대구,남구,대구 가톨릭대학교병원,대구시 남구 두류공원로17길33(대명동),053-650-3000,35.843808599999996,128.5670053
111,Y,대구,남구,남구보건소,대구시 남구 영선길 34 ,"053-664-3644,053-664-3582",35.853816099999996,128.5918331
112,Y,대구,남구,굿모닝병원,대구 남구 성당로 224,053-620-9129,35.853045,128.5740935
113,Y,대구,달서구,달서구보건소,대구광역시 달서구 학산로 45,"053-667-5754,053-667-3123",35.8297339,128.5326441
114,Y,대구,달서구,계명대학교 동산병원,대구 달서구 달구벌대로 1035(신당동),053-258-6879,35.8532967,128.48024709999999
115,Y,대구,달서구,보광병원,대구광역시 달서구 구마로 128,053-651-3232,35.836759799999996,128.5416946
116,Y,대구,달서구,의료법인구의료재단 구병원,대구광역시 달서구 감삼북길 141,053-560-9114,35.8506505,128.5413994
117,Y,대구,달서구,삼일병원,대구광역시 달서구 월배로 446,053-659-3100,35.832946899999996,128.55440629999998
118,Y,대구,달서구,더블유병원,대구광역시 달서구 달구벌대로 1632,053-550-5003 ,35.8527263,128.5450535
119,Y,대구,달서구,세강병원,대구 달서구 구마로 220,053-215-6200,35.8366663,128.55173689999998
120,Y,대구,달성군,달성군보건소,대구 달성군 현풍읍 비슬로130길 17 ,"053-668-3121,053-668-3114",35.6948119,128.4403309
121,Y,대구,동구,대구파티마병원,대구시 동구 아양로 99(심암동),"1688-7770,053-940-7098",35.8840357,128.6238479
122,Y,대구,동구,동구보건소,대구광역시 동구 동촌로 79 ,"053-662-3225,053-662-3274",35.888095799999995,128.6512343
123,Y,대구,북구,칠곡경북대학교병원,대구시 북구 호국로 807(학정동),053-200-2000,35.947786799999996,128.5573943
124,Y,대구,북구,북구보건소,대구광역시 북구 성북로 49,"053-665-2756,053-665-2760",35.8918696,128.5889017
125,Y,대구,북구,대구가톨릭대학교 칠곡가톨릭병원,대구광역시 북구 칠곡중앙대로 440,053-320-2186,35.9349066,128.54929669999999
126,Y,대구,서구,서구보건소,(703-701)대구 서구 국채보상로 257,"053-663-3176,053-663-3178",35.8718022,128.5592204
127,Y,대구,수성구,수성구보건소,대구광역시 수성구 수성로 213,"053-666-3264,053-666-3266",35.8447846,128.6122124
128,Y,대구,중구,중구보건소,대구광역시 중구 태평로 45 ,"053-661-3804,053-661-3826",35.8778703,128.583387
129,Y,인천,강화군,강화군보건소,인천시 강화군 강화읍 충혈사로 36-1,032-930-4081,37.748320899999996,126.48356629999999
130,Y,인천,강화군,비에스종합병원,강화읍 충렬사로 31,032-290-0001,37.731124699999995,126.47816019999999
131,Y,인천,계양구,한림병원,계양구 장제로 722,032-540-9114,37.5321972,126.73433049999998
132,Y,인천,계양구,메디플렉스 세종병원,계양구 계양문화로 20,032-240-8000,37.532404799999995,126.7367467
133,Y,인천,계양구,계양구보건소,인천시 계양구 계산새로 88,032-430-7821,37.5372039,126.73783949999999
134,Y,인천,남동구,남동구보건소,인천시 남동구 소래로 633,032-466-3808,37.4470653,126.73146159999999
135,Y,인천,동구,의료법인성수의료재단인천백병원,동구 샛골로 214,032-765-7070,37.476534199999996,126.644187
136,Y,인천,동구,동구보건소,동구 석수로 90,032-770-5700,37.4828792,126.6258285
137,Y,인천,미추홀구,현대유비스 병원,미추홀구 독배로 503,032-890-5509,37.4614899,126.6429794
138,Y,인천,미추홀구,미추홀구보건소,인천시 미추홀구 주안서로 25,032-880-5311,37.461006,126.6774642
139,Y,인천,부평구,가톨릭대학교 인천성모병원,부평구 동수로 56,1544-9004,37.484407399999995,126.7249147
140,Y,인천,부평구,부평세림병원,부평구 부평대로 175,032-524-0591,37.5067625,126.72005569999997
141,Y,인천,부평구,근로복지공단 인천병원,부평구 무네미로 446,032-500-0114,37.4761818,126.7539528
142,Y,인천,부평구,부평구보건소,인천시 부평구 부흥로 291,032-509-8200,37.4987922,126.72423699999999
143,Y,인천,서구,국제성모병원,서구 심곡로 100번길 25,1600-8291,37.5424593,126.68382049999998
144,Y,인천,서구,나은병원,서구 원적로 23,032-584-0114,37.4890123,126.67977929999999
145,Y,인천,서구,성민병원,서구 신석로 70,032-726-1119,37.5091475,126.66969569999998
146,Y,인천,서구,검단탑병원,서구 청마로 19번길 5,032-590-0114,37.592526299999996,126.67094480000002
147,Y,인천,서구,온누리병원,서구 완정로 199,032-568-9111,37.602754399999995,126.65431600000001
148,Y,인천,서구,서구보건소,인천시 서구 탁옥로 39,032-560-5000,37.5444051,126.6739044
149,Y,인천,연수구,나사렛 국제병원,연수구 먼우금로 98,032-899-9999,37.4078996,126.67049619999997
150,Y,인천,연수구,연수구보건소,인천시 연수구 함박뫼로 13,032-749-8000,37.419077099999996,126.67116060000001
151,Y,인천,연수구,인천적십자병원,인천시 연수구 원인재로 263,032-899-4287,37.418596,126.68883740000001
152,Y,인천,옹진군,옹진군보건소,인천시 미추홀구 매소홀로 120,032-899-3120,37.4465089,126.63674410000002
153,Y,인천,옹진군,백령병원,옹진군 백령면 백령로 233,032-836-1731,37.9625097,124.70056109999999
154,Y,인천,중구,인천기독병원,중구 답동로 30번길 10,032-270-8000,37.4712731,126.632106
155,Y,인천,중구,중구보건소,인천시 중구 참외전로72번길 21,032-760-6050,37.477208499999996,126.62903349999999
156,Y,인천,중구,중구보건소 용유지소,인천시 중구 마시란로 308-1,032-760-8991,37.4440385,126.40256670000001
157,Y,인천,중구,영종보건지소,인천시 중구 운남서로 100-1,032-760-6800,37.4938542,126.5313043
158,Y,광주,광산구,광산구보건소,광주광역시 광산구 광산로29번길 15 (송정동),062-960-8859,35.1397215,126.79370019999999
159,Y,광주,광산구,첨단종합병원,광주광역시 광산구 첨단중앙로170번길 59 (쌍암동),"주 062-601-8771,야 062-601-8119",35.2209175,126.84517299999999
160,Y,광주,광산구,KS병원,광주광역시 광산구 왕버들로220,062-975-9119,35.1978963,126.8332013
161,Y,광주,남구,광주기독병원,광주광역시 남구 양림로 37 (양림동),062-650-5119,35.1366727,126.91212199999998
162,Y,광주,남구,남구보건소,"광주광역시 남구 봉선로 1 (주월동, 남구청)",062-607-4450,35.1323377,126.9024012
163,Y,광주,동구,동구보건소,광주광역시 동구 서남로 1 (서석동),062-608-3312,35.1458272,126.9233266
164,N,광주,북구,광주일곡병원,광주광역시 북구 양일로 309 (일곡동),062-608-7119,35.2028356,126.89763620000001
165,Y,광주,북구,북구보건소,광주광역시 북구 우치로 65 (중흥동),062-410-8961,35.1709424,126.91724780000001
166,Y,광주,서구,서광병원,광주광역시 서구 금화로59번길 6 (금호동),"062-600-8119, 8161",35.1326041,126.85548990000001
167,Y,광주,서구,서구보건소,광주광역시 서구 경열로 33 (농성동),062-350-4158,35.1529017,126.89060680000001
168,Y,대전,대덕구,대덕구보건소, 대전광역시 대덕구 석봉로 38길 55,042-608-5436~40,36.4471343,127.42648000000001
169,Y,대전,대덕구,대전보훈병원,"대전광역시 대덕구 대청로82번길 147 (신탄진동,147)","042-939-0118, 0100",36.4473433,127.43935250000001
170,Y,대전,대덕구,근로복지공단 대전병원,대덕구 계족로 637,"(주)042-670-5406,(야)042-670-5119",36.3682859,127.4287207
171,Y,대전,동구,동구보건소,대전광역시 동구 동구청로147(가오동),042-251-6305,36.3118501,127.4548274
172,Y,대전,동구,대전한국병원,대전광역시 동구 동서대로 1672 ,042-606-1500,36.3481517,127.43582869999999
173,Y,대전,서구,서구보건소, 대전광역시 서구 만년로74,042-288-4500,36.367061899999996,127.3811053
174,Y,대전,서구,건양대학교병원,"대전광역시 서구 관저동로 158 (관저동,(관저동))",042-600-9999,36.2992196,127.34031949999999
175,Y,대전,서구,을지대학교병원,"대전광역시 서구 둔산서로 95 (둔산동,(둔산동))",042-259-1060,36.355326999999996,127.38200819999999
176,Y,대전,유성구,유성구보건소,대전광역시 유성구 유성대로730번길51,042-611-5047,36.3581253,127.33546820000001
177,Y,대전,유성구,유성선병원,"대전광역시 유성구 북유성대로 93 (지족동,(지족동))",042-609-1000,36.3751301,127.32494109999999
178,Y,대전,중구,중구보건소,대전광역시 중구 산성로 63,042-288-8043,36.307992899999995,127.3950816
179,Y,대전,중구,대전선병원,"대전광역시 중구 목중로 29 (목동,(목동))",042-220-8114,36.336001599999996,127.41018039999997
180,Y,대전,중구,대전성모병원,"대전광역시 중구 대흥로 64 (대흥동,(대흥동))",042-220-9114,36.3219153,127.42036339999999
181,Y,울산,남구,울산병원,울산광역시 남구 월평로171번길 13 (신정동),052-259-5000,35.546209,129.32307839999999
182,Y,울산,남구,좋은삼정병원,울산광역시 남구 북부순환도로 51 (무거동),052-220-7500,35.5528284,129.26905879999998
183,Y,울산,남구,"의)정안의료재단,중앙병원",울산광역시 남구 문수로480번길 10 (신정동),052-226-1100,35.531523299999996,129.3052032
184,Y,울산,남구,남구보건소,"울산광역시 남구 삼산중로 132 (삼산동, 울산남구보건소)",052-226-2805,35.545404999999995,129.3362736
185,Y,울산,동구,동구보건소,울산광역시 동구 봉수로 155 (화정동),052-209-4080,35.4967378,129.4163884
186,Y,울산,북구,울산시티병원,울산광역시 북구 산업로 1007 (연암동),052-280-9000,35.5810679,129.36238129999998
187,Y,울산,북구,북구보건소,울산광역시 북구 산업로 1018 (연암동),052-289-3450,35.5806071,129.3628005
188,Y,울산,울주군,서울산보람병원,울산광역시 울주군 삼남면 중평로 53,052-255-7114,35.5596168,129.1205746
189,Y,울산,울주군,울주군보건소,울산광역시 울주군 삼남면 서향교1길 67-12,052-265-9095,35.5583314,129.11377099999999
190,Y,울산,울주군,남부통합보건지소,울주군 온양읍 터실1길 13,052-204-2818,35.4552548,129.2909111
191,Y,울산,중구,동강병원,울산광역시 중구 태화로 239 (태화동),052-241-1114,35.553663,129.3020349
192,Y,울산,중구,중구보건소,울산광역시 중구 외솔큰길 225 (남외동),052-290-4300,35.5694483,129.3504562
193,Y,세종,,세종특별자치시보건소,세종특별자치시 조치원읍 건강길 16,044-301-2000,36.6055746,127.2963827
194,Y,세종,,충남대학교병원세종의원,세종특별자치시 가름로 238-1,044-960-5000,0.0,0.0
195,Y,경기,가평군,가평군보건소,경기도 가평군 가평읍 가화로 155-18,031-582-2488,37.8335569,127.5104515
196,Y,경기,가평군,HJ매그놀리아국제병원,경기도 가평군 설악면 미사리로 267-177,031-589-4300,37.6908251,127.52168919999998
197,Y,경기,고양시,덕양구 보건소,경기도 고양시 덕양구 원당로33번길 28 (주교동),031-8075-4059,37.6577337,126.831185
198,Y,경기,고양시,일산동구보건소,"경기도 고양시 일산동구 중앙로 1228 (마두동,KT고양지사 일산동구보건소)",031-8075-4135,37.655909,126.776126
199,Y,경기,고양시,일산서구보건소,경기도 고양시 일산서구 일중로 54 (일산동),031-8075-4212,37.6843777,126.77588
200,Y,경기,고양시,인제대학교 일산백병원,고양시 일산서구 주화로 170,031-910-7297,37.6742288,126.75036700000001
201,Y,경기,고양시,동국대학교일산불교병원,고양시 일산동구 동국로 27(식사동),031-961-8010,37.6763007,126.8067038
202,Y,경기,고양시,국민건강보험공단 일산병원,경기도 고양시 일산동구 일산로 100,031-900-0114,37.6454297,126.7929091
203,Y,경기,고양시,일산복음병원,경기도 고양시 일산동구 고양대로760,"031-929-0330,0331",37.681719799999996,126.7799777
204,Y,경기,과천시,과천시보건소,경기도 과천시 관문로69,02-2150-3832,37.429486499999996,126.98735119999999
205,N,경기,광명시,광명성애병원,"경기도 광명시 디지털로 36 (철산동, 광명성애병원)",02-2680-7115,37.473461,126.87184400000001
206,Y,경기,광명시,광명시보건소,"경기도 광명시 오리로 613 (하안동, 광명시보건소)",02-2680-2577 ,37.457224,126.879246
207,Y,경기,광주시,광주시보건소,경기도 광주시 파발로 194,031-760-2359,37.4163946,127.25049999999999
208,N,경기,광주시,참조은병원,경기도 광주시 광주대로 45,031-881-9285,37.410903399999995,127.26022999999999
209,Y,경기,구리시,구리시보건소,"경기도 구리시 건원대로34번길 84 (인창동, 구리보건소)",031-550-8618,37.604672,127.14509100000001
210,Y,경기,구리시,한양대학교구리병원,경기도 구리시 경춘로 153 (교문동),1644-9118,37.6011613,127.13231950000001
211,Y,경기,군포시,효신의료재단 지샘병원,"경기도 군포시 군포로 591 (당동, (G샘병원)군포샘병원)",031-389-3000,37.3586521,126.94729590000001
212,Y,경기,군포시,원광대학교 산본병원,경기도 군포시 산본로 321 (산본동),031-390-2300,37.359376399999995,126.9335943
213,Y,경기,군포시,군포시보건소,경기도 군포시 군포로 221 (부곡동),031-461-5464,37.3346015,126.9283057
214,Y,경기,김포시,김포우리병원,"경기도 김포시 감암로 11, 김포우리병원 (걸포동)",031-999-1000,37.632327499999995,126.7107438
215,Y,경기,김포시,뉴고려병원,"경기도 김포시 김포한강3로 283, 뉴고려병원 (장기동)",031-998-8129,37.641047799999996,126.65983190000001
216,Y,경기,김포시,김포시보건소,경기도 김포시 사우중로 108 (사우동),031-980-5080,37.623533099999996,126.7227163
217,Y,경기,남양주시,남양주보건소,경기도 남양주시 경춘로 1037 (금곡동),031-590-4454,37.6356141,127.1937748
218,Y,경기,남양주시,남양주풍양보건소,경기도 남양주시 진접읍 해밀예당1로 30-39,031-590-6956,37.710575399999996,127.1884869
219,Y,경기,남양주시,남양주한양병원,경기도 남양주시 오남읍 양지로 47-55,"031-510-0114, 031-510-0119",37.6823506,127.20421999999999
220,Y,경기,남양주시,현대병원,경기도 남양주시 진접읍 봉현로 21,031-574-9118,37.7155114,127.17965299999997
221,Y,경기,동두천시,동두천보건소,경기도 동두천시 중앙로 167 (생연동),031-860-3395,37.8965746,127.05171010000001
222,Y,경기,부천시,부천시보건소,경기도 부천시 옥산로10번길 16,032-625-4125,37.4941654,126.78097729999999
223,N,경기,부천시,부천시 오정보건소,경기도 부천시 성오로 172,032-625-8881,37.5280248,126.7962235
224,N,경기,부천시,부천시 소사보건소,부천시 경인옛로73,032-625-8881~4,37.4800061,126.7999362
225,Y,경기,부천시,순천향대학교 부천병원,경기도 부천시 조마루로 170 (중동),032-621-5114,37.4978251,126.76274439999997
226,Y,경기,부천시,가톨릭대학교부천성모병원,경기도 부천시 소사로 327,032-340-2402,37.48612380000001,126.7924958
227,Y,경기,부천시,부천세종병원,경기도 부천시 호현로 489번길 28,"주간) 032-340-1897, 야간) 032-340-1119",37.4811218,126.791382
228,Y,경기,성남시,중원구보건소,"경기도 성남시 중원구 금상로 137 (상대원동, 중원구보건소)",031-729-3895,37.4418516,127.17072309999999
229,Y,경기,성남시,분당구보건소,경기도 성남시 분당구 양현로 306 (야탑동),031-729-4004,37.4110097,127.1246119
230,Y,경기,성남시,분당제생병원,분당구 서현로 180번길 20,031-779-0100,37.3881717,127.12176640000001
231,Y,경기,성남시,분당차병원 ,분당구 야탑로 59,031-780-5546,37.4102789,127.1254597
232,Y,경기,성남시,수정구보건소,"경기도 성남시 수정구 수정로 218 (신흥동, 수정구보건소)",031-729-3872,37.4443074,127.1441357
233,Y,경기,성남시,성남시의료원,경기도 성남시 수정구 수정로 171번길 10,031-738-7000,37.4448723,127.13890699999999
234,Y,경기,성남시,순천의료재단정병원,경기도 성남시 수정구 수정로 76,031-750-6000,37.4398303,127.1290044
235,Y,경기,성남시,성남중앙병원,중원구 산성대로 476번길 12,031-799-5366,37.452700500000006,127.1620743
236,Y,경기,수원시,권선구보건소,경기도 수원시 권선구 호매실로 22-50 (탑동),031-228-6716,37.2587056,126.97112229999999
237,Y,경기,수원시,영통구보건소,경기도 수원시 영통구 영통로 396 (영통동),031-228-8808,37.250434299999995,127.06454769999999
238,Y,경기,수원시,장안구보건소,"경기도 수원시 장안구 송원로 101 (조원동, 장안구구보건소)",031-228-5715,37.304344799999996,127.01017680000001
239,Y,경기,수원시,팔달구보건소,경기도 수원시 팔달구 팔달산로 6 (교동),031-228-7716,37.2713991,127.0124884
240,Y,경기,수원시,아주대학교병원,경기도 수원시 영통구 월드컵로 164 (원천동),031-219-5114,37.2795318,127.0477406
241,Y,경기,수원시,경기도의료원 수원병원,경기도 수원시 장안구 수성로245번길 69 (정자동),"031-888-0119, 031-888-0129",37.2920141,126.99664600000001
242,Y,경기,수원시,성빈센트병원,경기도 수원시 팔달구 중부대로 93 (지동),1577-8588,37.278437499999995,127.0278484
243,Y,경기,수원시,동수원병원,경기도 수원시 팔달구 중부대로 165 (우만동),031-210-0114,37.278441,127.0343254
244,Y,경기,시흥시,석경의료재단 센트럴병원,"경기도 시흥시 공단1대로 237 (정왕동, 센트럴 병원)",031-8041-3530,37.336864,126.7280003
245,Y,경기,시흥시,신천연합병원 ,시흥시 복지로 57,031-310-6300,37.444552099999996,126.78951599999999
246,Y,경기,시흥시,시흥시화병원,경기도 시흥시 옥구천서로 337,031-432-2600,37.3528958,126.7245906
247,Y,경기,시흥시,시흥시보건소,경기도 시흥시 호현로 55 (대야동),031-310-5813,37.445579099999996,126.785283
248,Y,경기,시흥시,시흥시 정왕보건지소,시흥시 정왕대로 233번길  19,031-310-5907,37.346812199999995,126.74008339999999
249,Y,경기,안산시,단원보건소,경기도 안산시 단원구 화랑로 250 (초지동),031-481-6363,37.3259089,126.80907010000001
250,Y,경기,안산시,안산시상록수보건소,경기 안산시 상록구 차돌배기로1길 15,031-481-5894,37.3009783,126.8449019
251,Y,경기,안산시,고대안산병원,경기도 안산시 단원구 적금로 123 (고잔동),031-412-5400,37.319133300000004,126.8252651
252,Y,경기,안산시,한도병원,경기도 안산시 단원구 선부광장로 103,031-8040-1369,37.334018,126.80761369999999
253,Y,경기,안산시,근로복지공단안산병원,"경기도 안산시 상록구 구룡로 87, 근로복지공단안산병원 (일동)",031-500-1114,37.3167579,126.87398669999999
254,Y,경기,안성시,경기도의료원 안성병원,경기도 안성시 남파로 95 (당왕동),031-8046-5000,37.0172199,127.2604121
255,Y,경기,안성시,안성성모병원,경기도 안성시 시장길 58 (서인동),031-675-6007,37.006217899999996,127.27103289999998
256,Y,경기,안성시,안성시보건소,경기도 안성시 강변로74번길 18 (도기동),031-678-5710,37.0001476,127.26981560000002
257,Y,경기,안양시,동안구보건소,경기도 안양시 동안구 평촌대로253번길 41 (비산동),031-8045-4472,37.3925391,126.95164439999999
258,Y,경기,안양시,만안구보건소,경기도 안양시 만안구 문예로 48 (안양동),031-8045-3472,37.385858,126.93273029999999
259,Y,경기,안양시,한림대학교 성심병원,경기도 안양시 동안구 관평로170번길 22 (평촌동),031-380-1500,37.391430799999995,126.96175369999999
260,Y,경기,안양시,안양샘병원,"경기도 안양시 만안구 삼덕로 9 (안양동, 안양샘병원)",031-467-9119,37.393372899999996,126.92429270000001
261,Y,경기,양주시,양주시보건소,경기도 양주시 부흥로 1533 (남방동),031-8082-7116,37.785287,127.04579000000001
262,Y,경기,양평군,양평군보건소,경기도 양평군 양평읍 마유산로 17,031-770-3490,37.4969798,127.4866817
263,Y,경기,양평군,양평병원,경기도 양평군 양평읍 중앙로 129,031-770-5119,37.493980199999996,127.50333760000001
264,N,경기,여주시,세종여주병원,"경기도 여주시 청심로 39, 세종여주병원 (하동)",031-880-7700,37.3012851,127.6266777
265,Y,경기,여주시,여주시보건소,경기도 여주시 여흥로160번길 14 (상동),031-887-3601,37.2945522,127.6403573
266,Y,경기,연천군,연천군 보건의료원,경기도 연천군 전곡읍 은대성로 95,031-839-4064,38.0233652,127.0612435
267,Y,경기,오산시,오산시보건소,경기도 오산시 경기동로 59 (오산동),031-8036-6025,37.1596239,127.07765110000001
268,Y,경기,오산시,오산한국병원,경기도 오산시 밀머리로1번길 16 (원동),031-379-8300,37.141348799999996,127.07559029999999
269,Y,경기,용인시,기흥구보건소,"경기도 용인시 기흥구 신갈로58번길 11 (신갈동, 기흥구 보건소)",031-324-6940,37.2726166,127.10675020000001
270,Y,경기,용인시,수지구보건소,경기도 용인시 수지구 포은대로 435 (풍덕천동),"031-324-8451, 8452, 8453",37.3221501,127.097437
271,Y,경기,용인시,강남병원,"경기도 용인시 기흥구 중부대로 411, 강남병원 (신갈동)",031-300-0119,37.273707099999996,127.1114742
272,Y,경기,용인시,처인구보건소,경기도 용인시 처인구 중부대로 1199,031-324-2114,37.240608,127.1772935
273,Y,경기,용인시,영문의료재단 다보스병원,"경기도 용인시 처인구 백옥대로1082번길 18, 다보스종합병원 (김량장동)",031-8021-2000,37.2315521,127.21131740000001
274,N,경기,용인시,용인세브란스병원,경기 용인시 기흥구 동백죽전대로 363,031-331-8888,37.272137099999995,127.1521978
275,Y,경기,용인시,용인서울병원,경기도 용인시 처인구 고림로 81 ,031-322-0001,37.2403252,127.21459809999999
276,Y,경기,의왕시,의왕시보건소,"경기도 의왕시 오봉로 34 (고천동, 의왕시보건소)",031-345-3572,37.3437286,126.9720042
277,Y,경기,의왕시,아가페의료재단 시티병원,경기도 의왕시 오전천로 29,031-340-2555,37.3502461,126.9767752
278,Y,경기,의정부시,경기도의료원의정부병원 (응급실),경기도 의정부시 흥선로 142 (의정부동),031-828-5143,37.741038499999995,127.04252419999999
279,N,경기,의정부시,의정부시보건소,의정부시 범골로 131,031-870-6011~4,37.7361517,127.03956810000001
280,Y,경기,의정부시,가톨릭대학교 의정부성모병원,의정부시 천보로 271,1661-7500,37.7583561,127.07744590000001
281,Y,경기,의정부시,추병원,의정부시 평화로 650,031-823-8063,37.7499591,127.0450362
282,Y,경기,의정부시,의정부백병원,경기도 의정부시 금신로  322,031-842-1211,37.7452366,127.0620467
283,Y,경기,이천시,경기도의료원 이천병원,경기도 이천시 경충대로 2742 (관고동),031-630-4200,37.282593399999996,127.4328154
284,Y,경기,이천시,이천시보건소,경기도 이천시 증신로153번길 13 (증포동),031-635-2400,37.2889554,127.45236679999998
285,Y,경기,파주시,파주시보건소,경기도 파주시 후곡로 13 (금촌동),031-940-4800,37.756308,126.7738979
286,Y,경기,파주시,경기도의료원 파주병원,"경기도 파주시 중앙로 207, 경기도립의료원파주병원 (금촌동)",031-940-9100,37.7548246,126.77972279999997
287,Y,경기,평택시,의료법인 백송의료재단 굿모닝병원,경기도 평택시 중앙로 338 (합정동),031-5182-7700,36.9906469,127.1205614
288,Y,경기,평택시,의료법인 박애의료재단 박애병원,경기도 평택시 평택2로20번길 3 (평택동),031-652-2121,36.9930038,127.08906549999999
289,Y,경기,평택시,의료법인 양진의료재단 평택성모병원,경기도 평택시 평택로 284 (세교동),1800-8800,37.0086558,127.08676290000001
290,Y,경기,평택시,평택보건소,경기도 평택시 평택5로 56 (비전동),031-8024-5559,36.9907621,127.11181909999999
291,Y,경기,평택시,평택시 안중보건지소,경기도 평택시 안중읍 안현로 400,031-8024-8618,36.985702499999995,126.93193939999999
292,Y,경기,평택시,박병원,경기도 평택시 송탄로 33 (장당동),031-666-2600,37.0482193,127.05700110000001
293,Y,경기,평택시,송탄보건소,경기도 평택시 서정로 295 (이충동),031-8024-7273,37.0706133,127.0508351
294,Y,경기,포천시,포천시보건소,경기도 포천시 포천로 1612 (신읍동),031-538-3600,37.900773,127.20112689999998
295,Y,경기,포천시,경기도의료원 포천병원,경기도 포천시 포천로 1648 (신읍동),031-539-9114,37.9031637,127.19812290000002
296,Y,경기,포천시,소흘보건지소,경기도 포천시 소흘읍 호국로 567,031-538-4486,37.8233806,127.13866259999999
297,Y,경기,포천시,일동보건지소,경기도 포천시 일동면 화동로 1099번길 30,031-538-4488,37.961189,127.317272
298,Y,경기,하남시,하남시보건소,경기도 하남시 대청로 10 (신장동),031-790-6555,37.5391091,127.2146082
299,Y,경기,화성시,화성중앙종합병원,경기도 화성시 향남읍 발안로 5,031-371-8080,37.1313154,126.9107719
300,Y,경기,화성시,화성시보건소,경기도 화성시 향남읍 3.1만세로 1055,031-5189-1200,37.1291446,126.9046066
301,Y,경기,화성시,화성시보건소 동탄보건지소,경기도 화성시 노작로 226-9,031-5189-1200,37.2067614,127.07858510000001
302,Y,경기,화성시,동탄성심병원,경기도 화성시 큰재봉길 7,1522-2500,37.2166637,127.08012090000001
303,Y,경기,화성시,원광종합병원,경기 화성시 화산북로 21 ,031-8077-7219,37.206496,127.01003209999999
304,Y,경기,화성시,남양디에스병원,경기도 화성시 남양읍 시청로160번길 46-13,031-5180-7777,37.1964083,126.83264189999998
305,Y,강원,강릉시,강릉아산병원,강원도 강릉시 사천면 방동길 38,033-610-4111,37.8182428,128.85927189999998
306,Y,강원,강릉시,강릉동인병원,"강원도 강릉시 강릉대로419번길 42-  (포남동, (포남동))",033-651-6161,37.774339700000006,128.9070484
307,N,강원,강릉시,강릉고려병원,"강원도 강릉시 옥가로 30-  (옥천동,30)",033-649-0333,37.7590037,128.89986
308,Y,강원,강릉시,강릉시보건소,강원도 강릉시 남부로17번길 38 (내곡동),033-660-3090,37.7426855,128.88280609999998
309,Y,강원,고성군,고성군보건소,강원도 고성군 간성읍 수성로 30,033-681-4000,38.3775319,128.4720276
310,Y,강원,동해시,동해시보건소,강원 동해시 천곡동 840,033-530-2402,37.5227764,129.11711
311,Y,강원,동해시,동해동인병원,"강원도 동해시 하평로 26-  (평릉동, (평릉동))",033-530-0119,37.5301401,129.1073994
312,Y,강원,동해시,근로복지공단 동해병원,강원도 동해시 하평로 11,033-530-3119,37.5313691,129.1077852
313,Y,강원,삼척시,삼척의료원,"강원도 삼척시 오십천로 418 (남양동,(남양동))","(주간)033-570-7545,(야간)033-570-7431",37.4398318,129.1633551
314,Y,강원,삼척시,삼척시보건소,"강원도 삼척시 척주로 76 (남양동, 삼척시보건소)",033-570-4649,37.4436465,129.17209409999998
315,Y,강원,속초시,속초시보건소,강원도 속초시 교동 980(수복로 36),033-639-2924,38.1961945,128.5758914
316,Y,강원,속초시,강원도속초의료원,"강원도 속초시 영랑호반길 3-  (영랑동, (영랑동))","(주간)033-630-6190,(야간)033-630-6122",38.2164098,128.5885347
317,Y,강원,속초시,속초보광병원,속초시 중앙로 11 ,"(주간)033-639-8557,(야간)033-639-8988",38.1979798,128.5783566
318,Y,강원,양구군,양구군보건소,강원 양구군 양구읍 하리 34-5 ,"(주간)033-480-2791,(야간)033-480-2550",38.1099903,127.99008829999998
319,Y,강원,양구군,의료법인 성심의료재단 양구성심병원,강원도 양구군 양구읍 중심로 160 (160),033-480-8800,38.1045016,127.99114940000001
320,Y,강원,양양군,양양군보건소,강원도 양양군 양양읍 양양로 9-5,"(주간)033-670-2119,(야간)033-670-2880",38.0776943,128.62738099999999
321,Y,강원,영월군,강원도영월의료원,강원도 영월군 영월읍 중앙1로 59,033-370-9129,37.1865308,128.4651096
322,Y,강원,영월군,영월군보건소,강원도 영월군 영월읍 하송로 44,033-370-2448,37.1842043,128.4634341
323,Y,강원,원주시,연세대학교 원주세브란스기독병원,강원도 원주시 일산로 20-0 (일산동),033-741-1641,37.348440200000006,127.94777049999998
324,Y,강원,원주시,원주시보건소,"강원도 원주시 원일로 139, 3층 (일산동, 건강문화센터)","(주간)033-737-4007,(야간)033-737-4065",37.3514647,127.9467988
325,Y,강원,원주시,강원도원주의료원,강원 원주시 서원대로 387,033-760-4701~2,37.3330067,127.94890679999999
326,Y,강원,인제군,인제군보건소,강원도 인제군 인제읍 인제로140번길 34,"(주간)033-460-2516,(야간)033-461-2425",38.0634793,128.1687081
327,Y,강원,정선군,근로복지공단정선병원,강원도 정선군 정선읍 봉양1길 145-0 ( ),033-560-7110,37.3830173,128.6587563
328,Y,강원,정선군,정선군보건소,강원도 정선군 정선읍 녹송로 33,033-560-2739,37.379984799999995,128.6713234
329,Y,강원,철원군,철원군보건소,강원도 철원군 갈말읍 군탄리 960-2,"033-450-5550, 5468",38.1481314,127.30290230000001
330,N,강원,철원군,철원병원,강원도 철원군 갈말읍 명성로 208-0,033-450-3321,38.1502529,127.30773450000001
331,Y,강원,춘천시,한림대학교 춘천성심병원,춘천시 삭주로 77,"(주간)033-240-5815,(야간)033-240-5219",37.8839706,127.7398959
332,Y,강원,춘천시,춘천시보건소,강원도 춘천시 중앙로 135 (중앙로3가),"(주간)033-250-4590,(야간)033-250-4597",37.875538299999995,127.72019370000001
333,Y,강원,태백시,태백시보건소,강원도 태백시 태백로 905 (황지동),"(주간)033-550-2718,(야간)033-552-4000",37.164372,128.951832
334,Y,강원,태백시,근로복지공단 태백병원,강원도 태백시 보드미길8,"(주간)033-581-6390,(야간)033-580-3119",37.1034236,129.005278
335,Y,강원,평창군,평창군보건의료원,강원도 평창군 평창읍 노성로 11,"(주간)033-330-4877,(야간)033-330-4800",37.368772899999996,128.390471
336,Y,강원,홍천군,홍천아산병원,강원도 홍천군 홍천읍 산림공원1길 17,033-430-5119,37.6906658,127.8946511
337,Y,강원,홍천군,홍천군보건소,강원도 홍천군 홍천읍 신장대로 5,033-430-4024,37.6901434,127.87712780000001
338,Y,강원,화천군,화천군보건의료원,강원 화천군 화천읍 중리 242-4 화천군보건의료원,033-442-4424,38.1072042,127.70907679999999
339,Y,강원,횡성군,횡성대성병원,강원도 횡성군 횡성읍 횡성로 275-  ( ),033-343-0901,37.4783172,127.9797883
340,Y,강원,횡성군,횡성군보건소,강원도 횡성군 횡성읍 횡성로 379 (횡성군 종합복지타운),033-340-5707,37.4870592,127.9845965
341,Y,충북,괴산군,괴산군보건소,괴산군 괴산읍 동진천길 43,043-832-4000,36.8080614,127.79660480000001
342,Y,충북,괴산군,괴산성모병원,충청북도 괴산군 괴산읍 임꺽정로 116-0,043-830-5400,36.815411999999995,127.7842385
343,Y,충북,단양군,단양군보건소,단양군 단양읍 삼봉로 53,043-420-3263,36.9813616,128.3503088
344,Y,충북,단양군,단양군립노인요양병원,충청북도 단양군 단양읍 별곡6길 10,043-423-8844,36.9872283,128.3687144
345,Y,충북,보은군,(의료법인)정민의료재단 보은한양병원,충청북도 보은군 보은읍 보은로 102-0,043-544-1500,36.483278299999995,127.7182865
346,Y,충북,보은군,보은군보건소,충청북도 보은군 보은읍 동광길 50,043-540-5601,36.4866197,127.716223
347,Y,충북,영동군,영동병원,충청북도 영동군 영동읍 대학로 106-0,043-740-9000,36.185185800000006,127.7808201
348,Y,충북,영동군,영동군보건소,충청북도 영동군 영동읍 반곡동길 7,043-740-5612,36.168468499999996,127.77598210000001
349,Y,충북,옥천군,옥천성모병원,충청북도 옥천군 옥천읍 성왕로 1195-0,043-730-7000,36.3137075,127.571949
350,Y,충북,옥천군,옥천군보건소,충청북도 옥천군 옥천읍 삼양로8길 10,043-730-2114,36.3042596,127.570179
351,Y,충북,음성군,음성군보건소,충청북도 음성군 음성읍 중앙로49,043-872-2136,36.9285496,127.6887223
352,Y,충북,음성군,금왕태성병원,충청북도 음성군 금왕읍 음성로1230번길 10-0,043-883-8800,36.9974622,127.59852309999998
353,Y,충북,제천시,제천 서울병원,충청북도 제천시 숭문로 57-0 (서부동),043-642-7609,37.138414999999995,128.2062794
354,Y,충북,제천시,제천시보건소,충청북도 제천시 의림대로 242 (청전동),043-646-2720,37.158010399999995,128.2079182
355,Y,충북,제천시,명지병원(제천),충청북도 제천시 내토로 991,043-640-8373,37.1633515,128.2339864
356,Y,충북,증평군,증평군보건소,충청북도 증평군 증평읍 보건복지로 64-1 (증평군보건소),043-835-4220,36.774280999999995,127.58668279999999
357,Y,충북,진천군,진천성모병원,충청북도 진천군 진천읍 중앙북로 36,043-533-1711,36.858312,127.44062009999999
358,Y,충북,진천군,진천군보건소,충청북도 진천군 진천읍 중앙북1길 11-8,043-539-7333,36.8605567,127.4396393
359,Y,충북,청주시,상당보건소,청주시 상당구 남일면 단재로 480,043-201-3143,36.588251,127.50530900000001
360,Y,충북,청주시,의료법인 인화재단한국병원,충청북도 청주시 상당구 단재로 106-0 (영운동),043-222-7000,36.6195362,127.49670809999999
361,Y,충북,청주시,의료법인정산의료재단효성병원,충청북도 청주시 상당구 쇠내로 16-0 (금천동),043-221-5000,36.6244467,127.49552849999999
362,Y,충북,청주시,서원보건소,청주시 서원구 사직대로 227,043-201-3207,36.6375895,127.4698136
363,Y,충북,청주시,충청북도 청주의료원,충청북도 청주시 서원구 흥덕로 48 (사직동),043-279-2300,36.6401571,127.47316370000001
364,Y,충북,청주시,청주성모병원,"충청북도 청주시 청원구 주성로 173-19 (주중동,청주성모병원)",043-219-8000,36.6736692,127.48570029999999
365,Y,충북,청주시,청원보건소,충청북도 청주시 청원구 오창읍 과학산업3로 238,043-201-3442,36.710152,127.431573
366,Y,충북,청주시,흥덕보건소,청주시 흥덕구 비하로12번길 46,043-201-3342,36.630094299999996,127.4265066
367,Y,충북,청주시,한마음의료재단 하나병원,충청북도 청주시 흥덕구 2순환로 1262-0 (가경동),043-230-6326,36.6234909,127.4309797
368,Y,충북,청주시,베스티안병원,충청북도 흥덕구 오송읍 오송생명1로 191,043-910-7575,36.641371299999996,127.46307360000002
369,Y,충북,충주시,충주시보건소,충주시 으뜸로 21,043-850-3431 ,36.9909318,127.9257875
370,Y,충북,충주시,충청북도 충주의료원,충청북도 충주시 안림로 239-50 (안림동),043-871-0114,36.9798103,127.9707484
371,Y,충북,충주시,건국대학교 충주병원,충청북도 충주시 국원대로 82-0 (교현동),043-840-8200,36.978845899999996,127.9293385
372,Y,충남,계룡시,계룡시보건소,충청남도 계룡시 장안로 54,042-840-3507,36.2730058,127.2500519
373,Y,충남,공주시,충청남도공주의료원,충청남도 공주시 무령로 77 (웅진동),041-962-1111,36.4591481,127.11293959999999
374,Y,충남,공주시,공주시 보건소,"충청남도 공주시 봉황로 123 (교동, 공주시보건소)",041-840-2524,36.4563591,127.1206645
375,Y,충남,금산군,새금산병원,충청남도 금산군 금산읍 비단로 183,041-754-8272,36.1040534,127.4961573
376,Y,충남,금산군,금산군보건소,"충청남도 금산군 금산읍 금산로 1559, 0동",041-750-4311,36.0961444,127.4897355
377,Y,충남,논산시,백제종합병원,충청남도 논산시 시민로294번길 14 (취암동),041-733-2191,36.1923478,127.09438949999999
378,Y,충남,논산시,논산시보건소,충청남도 논산시 논산대로 382 (관촉동),041-730-4086~7,36.1811254,127.1234473
379,Y,충남,당진시,당진종합병원,충청남도 당진시 반촌로 5-15 (시곡동),041-357-0100,36.9044154,126.6847755
380,Y,충남,당진시,당진시보건소,충청남도 당진시 서부로 56 (채운동),041-360-6003,36.887327299999995,126.63026300000001
381,Y,충남,보령시,보령시보건소,충청남도 보령시 남포면 보령남로 234,041-930-0900,36.3244623,126.60240809999999
382,Y,충남,보령시,보령아산병원,충청남도 보령시 죽성로 136 (죽정동),041-930-5333,36.3805499,126.6232855
383,Y,충남,부여군,건양대학교 부여병원,충청남도 부여군 부여읍 계백로 200,041-837-1200,36.275721,126.90106990000001
384,Y,충남,부여군,부여군보건소,충청남도 부여군 부여읍 성왕로 205,041-830-8600,36.279575099999995,126.9186989
385,Y,충남,서산시,충청남도서산의료원,충청남도 서산시 중앙로 149 (석림동),041-689-7000,36.7775509,126.47517529999999
386,Y,충남,서산시,서산시보건소,"충청남도 서산시 호수공원6로 6 (예천동, 서산시보건소)",041-661-8232,36.774794,126.44433129999999
387,Y,충남,서천군,서해병원,충청남도 서천군 서천읍 서천로 184,041-951-8282,36.0844803,126.6876312
388,Y,충남,서천군,서천군보건소,충청남도 서천군 서천읍 사곡길 26,041-950-6750,36.0822822,126.6896073
389,Y,충남,아산시,아산충무병원,충청남도 아산시 문화로 381 (모종동),041-536-6666,36.779140399999996,127.01955679999999
390,Y,충남,아산시,아산시보건소,충청남도 아산시 번영로 224번길 20 아산시보건소 ,041-537-3311,36.7827142,127.01459879999999
391,Y,충남,아산시,현대병원,충남 아산시 시민로 388,041-546-3636,36.7830692,127.00102389999999
392,Y,충남,예산군,의료법인 예당의료재단 예산종합병원,충청남도 예산군 예산읍 금오대로 94,041-330-4000,36.6910697,126.83770439999999
393,Y,충남,예산군,예산군보건소,"충청남도 예산군 예산읍 군청로 22, 예산군청",041-339-6062,36.680223999999995,126.8446723
394,Y,충남,천안시,천안시 서북구보건소,충청남도 천안시 서북구 번영로 156 서북구보건소 ,041-521-2552,36.8156927,127.11368680000001
395,Y,충남,천안시,천안시 동남구보건소,충청남도 천안시 동남구 버들로 34 동남구보건소 ,041-521-2651,36.8069475,127.1505639
396,Y,충남,천안시,학교법인동은학원 순천향대학교 부속천안병원,"충청남도 천안시 동남구 순천향6길 31 (봉명동, 5동 (봉명동,순천향대학교병원))",1577-7523,36.8028806,127.1363643
397,Y,충남,천안시,의료법인영서의료재단 천안충무병원,충청남도 천안시 서북구 다가말3길 8 (쌍용동),041-570-7555,36.797347099999996,127.1315479
398,Y,충남,천안시,충청남도천안의료원(소아청소년과 없음),충청남도 천안시 동남구 충절로 537 (삼룡동),041-570-7033,36.780891,127.17790369999999
399,Y,충남,천안시,천안우리병원,충청남도 천안시 동남구 남부대로 350 (청당동,041-590-9000,36.7809592,127.1557958
400,Y,충남,청양군,청양군보건의료원,충청남도 청양군 청양읍 칠갑산로7길 54,041-942-3401,36.4551521,126.80493079999998
401,Y,충남,태안군,태안군보건의료원,충청남도 태안군 태안읍 서해로 1952-16,041-671-5315,36.7519439,126.3229392
402,Y,충남,홍성군,충청남도 홍성의료원,충청남도 홍성군 홍성읍 조양로 224,041-630-6114,36.598802299999996,126.67433220000001
403,Y,충남,홍성군,홍성군보건소,충청남도 홍성군 홍성읍 문화로 106,041-632-2588,36.5967473,126.66292550000001
404,Y,전북,고창군,고창군보건소,전라북도 고창군 고창읍 전봉준로 90 ((고창읍 전봉준로 90)),063-560-8711,35.443758599999995,126.68324890000001
405,Y,전북,고창군,(의)석천재단고창병원,전라북도 고창군 고창읍 화신1길 9,063-560-5600,35.4364207,126.69366300000002
406,Y,전북,군산시,군산시보건소,전라북도 군산시 수송동로 58 (수송동),063-460-3200,35.964664299999995,126.72021769999998
407,Y,전북,군산시,군산의료원,"전라북도 군산시 의료원로 27 (지곡동,(지곡동, 군산의료원))",063-472-5000,35.954685,126.7124545
408,Y,전북,군산시,동군산병원,전북 군산시 조촌로 149,063-440-0516,35.9773651,126.7370947
409,Y,전북,김제시,김제우석병원,"전라북도 김제시 서암4길 45 (서암동,(서암동))",063-540-5114,35.807355099999995,126.8802411
410,Y,전북,김제시,김제시보건소,전라북도 김제시 성산길 138 (요촌동),063-540-1300,35.8008115,126.8833101
411,Y,전북,남원시,남원의료원,"전라북도 남원시 충정로 365 (고죽동,(고죽동))",063-620-1114,35.4383803,127.4057895
412,Y,전북,남원시,남원시보건소,전라북도 남원시 요천로 1285 (조산동),063-625-4000,35.3976924,127.36435209999999
413,Y,전북,무주군,무주군보건의료원,"전라북도 무주군 무주읍 한풍루로 413, 무주군보건의료원",063-320-8314,36.0057918,127.67164019999998
414,Y,전북,부안군,부안군보건소,전라북도 부안군 부안읍 오리정로 124,063-584-1261,35.7228849,126.73591030000001
415,Y,전북,부안군,부안성모병원,전라북도 부안군 부안읍 오정2길 24,063-581-5100,35.7246989,126.7344282
416,Y,전북,순창군,순창군보건의료원,전라북도 순창군 순창읍 교성로 135 (순창군보건의료원),063-650-5352,35.367211399999995,127.14402530000001
417,N,전북,완주군,고려병원,전라북도 완주군 삼례읍 동학로 21 (21),063-290-0114,35.9118399,127.0743765
418,Y,전북,완주군,완주군보건소,전라북도 완주군 삼례읍 삼봉로 215-20,063-290-3133,35.921229499999995,127.0926561
419,Y,전북,익산시,익산병원,"전라북도 익산시 무왕로 969 (신동,(신동))",063-840-9112,35.961682599999996,126.9664723
420,Y,전북,익산시,익산시보건소,전라북도 익산시 무왕로 975 (신동),063-859-4811,35.9597845,126.96140340000001
421,Y,전북,임실군,임실군보건의료원,전라북도 임실군 임실읍 호국로 1680,063-640-3119,35.6127033,127.28732529999999
422,Y,전북,장수군,장수군보건의료원,전라북도 장수군 장수읍 장천로 247,063-350-2119,35.6542283,127.5197623
423,Y,전북,전주시,예수병원,"전라북도 전주시 완산구 서원로 365 (중화산동1가,(중화산동1가, 예수병원))",063-230-8282,35.814194199999996,127.13330769999999
424,Y,전북,전주시,대자인병원,"전라북도 전주시 덕진구 견훤로 390 (우아동3가,(우아동3가))",063-250-8703,35.84597730000001,127.1533607
425,Y,전북,전주시,전주병원,"전라북도 전주시 완산구 한두평3길 13 (중화산동2가,(중화산동2가, 전주병원))",063-220-7280,35.8150738,127.1248037
426,Y,전북,전주시,전주시보건소(덕진진료실),전라북도 전주시 덕진구 벚꽃로 55 전주시보건소 덕진진료실,063-250-3907,35.8293203,127.13391379999999
427,Y,전북,전주시,호성전주병원,전주시 덕진구 동부대로 895,063-240-8894,35.848752,127.1464411
428,Y,전북,정읍시,정읍아산병원,"전라북도 정읍시 충정로 606-22 (용계동,(용계동))",063-530-6000,35.594806399999996,126.8111627
429,Y,전북,정읍시,정읍시보건소,전라북도 정읍시 수성1로 61 (수성동),063-539-6112,35.578123,126.85471369999999
430,Y,전북,진안군,진안군의료원,전라북도 진안군 진안읍 진무로 1145,063-430-7000,35.7948193,127.43214049999999
431,Y,전북,진안군,진안군보건소,전라북도 진안군 진안읍 진무로 1189 (진안보건소),063-430-8560,35.7955794,127.43391629999999
432,Y,전남,강진군,강진의료원,전라남도 강진군 강진읍 탐진로 5,061-433-2167,34.6372553,126.757457
433,Y,전남,강진군,강진군보건소,전라남도 강진군 강진읍 목리길 11,061-430-3592,34.6381127,126.7754739
434,Y,전남,고흥군,고흥종합병원,전라남도 고흥군 고흥읍 고흥로 1935,061-835-6000,34.621004299999996,127.29393970000001
435,Y,전남,고흥군,고흥군보건소,전라남도 고흥군 고흥읍 등암3길 5,061-830-6688,34.5922123,127.268837
436,Y,전남,고흥군,녹동현대병원,전남 고흥군 도양읍 차경구렁목길 215,061-840-1200,34.5465248,127.14574689999998
437,Y,전남,곡성군,곡성사랑병원,전라남도 곡성군 곡성읍 곡성로 761,061-360-6000,35.276330099999996,127.28829449999998
438,Y,전남,곡성군,곡성군보건의료원,전라남도 곡성군 곡성읍 곡성로 854,061-360-7563,35.2585523,127.27360370000001
439,Y,전남,광양시,광양사랑병원,"전라남도 광양시 공영로 71 (중동, (중동))",061-797-7000,34.9361515,127.6970766
440,Y,전남,광양시,광양시보건소,전라남도 광양시 광양읍 인덕로 1100,061-797-4015,34.980816600000004,127.5831163
441,Y,전남,구례군,구례병원,전라남도 구례군 구례읍 동편제길 4,061-780-3300,35.2159901,127.463487
442,Y,전남,구례군,구례군보건의료원,전라남도 구례군 구례읍 동편제길 30,061-780-2673,35.2159325,127.4614696
443,N,전남,나주시,나주종합병원,"전라남도 나주시 영산로 5419-0 (성북동,나주종합병원)",061-330-6114,35.0366967,126.72158879999998
444,Y,전남,나주시,나주시보건소,"전라남도 나주시 풍물시장2길 57-32 (이창동, 나주시보건소)",061-339-2164,34.9951459,126.70814659999999
445,N,전남,나주시,빛가람동 선별진료소,전남 나주시 빛가람로 721,061-339-2164,35.0157729,126.756466
446,Y,전남,나주시,산포면 선별진료소,전남 나주시 산포면 산포로 468-15,061-339-2164,35.0400779,126.80586339999999
447,Y,전남,담양군,담양사랑병원,전라남도 담양군 담양읍 천변7길 19,061-380-9000,35.3152638,126.98274699999999
448,Y,전남,담양군,담양군보건소,전라남도 담양군 담양읍 완동길 10-11,061-380-3972,35.325043099999995,126.9812927
449,Y,전남,목포시,목포한국병원,전라남도 목포시 영산로 483 (상동),061-270-5800,34.8145537,126.41165620000001
450,Y,전남,목포시,목포기독병원,전라남도 목포시 백년대로 303 (상동),061-280-7500,34.804445,126.4206723
451,Y,전남,목포시,목포중앙병원,전라남도 목포시 영산로 623 (석현동),061-280-3000,34.821204,126.42246519999999
452,Y,전남,목포시,목포시의료원,"전라남도 목포시 이로로 18 (용해동, (용해동))",061-260-6500,34.804123499999996,126.40535209999999
453,Y,전남,목포시,세안종합병원,"전라남도 목포시 고하대로 795-2 (연산동,(연산동))",061-260-6713,34.8280744,126.3876261
454,Y,전남,목포시,전남중앙병원,전라남도 목포시 고하대로 724 (산정동),061-260-3555,34.8103407,126.37578429999999
455,Y,전남,목포시,목포시보건소,전라남도 목포시 원산로45번길 5 (산정동),061-277-4000,34.8042563,126.37370700000001
456,Y,전남,무안군,대송의료재단 무안병원,전라남도 무안군 무안읍 몽탄로 65,061-450-3111,34.9914382,126.4891531
457,Y,전남,무안군,무안군보건소,전라남도 무안군 무안읍 무안로 530,061-450-5021,34.9903067,126.48198020000001
458,Y,전남,보성군,보성아산병원,전라남도 보성군 미력면 가평길 36-17,061-850-3606,34.775538499999996,127.1051557
459,Y,전남,보성군,보성군보건소,전라남도 보성군 보성읍 송재로 153,061-850-5684,34.770081999999995,127.07907829999999
460,Y,전남,보성군,벌교삼호병원,전라남도 보성군 벌교읍 남하로 12,061-859-5051,34.83369,127.34598249999999
461,Y,전남,순천시,순천시보건소,전남 순천시 중앙로 232,061-749-6680,34.9666906,127.4865762
462,Y,전남,순천시,순천 성가롤로병원,전라남도 순천시 순광로 221 (조례동),061-720-2000,34.9642662,127.5428763
463,Y,전남,순천시,순천의료원,전라남도 순천시 서문성터길 2 (매곡동),061-759-9440,34.958133499999995,127.48347609999999
464,Y,전남,순천시,순천 한국병원,전라남도 순천시 우명길 42 ,061-740-5291,34.9476145,127.51250979999999
465,Y,전남,순천시,순천병원,전라남도 순천시 조례1길 24,061-720-7580,34.9608961,127.52490209999999
466,Y,전남,신안군,신안군보건소,전라남도 신안군 압해읍 천사로 1004,061-240-8084,34.8333863,126.3511946
467,N,전남,신안군,신안대우병원,전라남도 신안군 비금면 송치길 155-11,061-262-3301,34.7223845,125.93300079999999
468,Y,전남,여수시,여천전남병원,"전라남도 여수시 무선로 95 (선원동, (선원동))",061-690-6000,34.7690003,127.6542545
469,Y,전남,여수시,여수시보건소,전라남도 여수시 시청서4길 47 (학동),061-659-4252,34.7593666,127.66063410000001
470,N,전남,여수시,여수전남병원,"전남 여수시 좌수영로 49(광무동,전남병원)",061-640-7118,34.7447253,127.72801559999999
471,Y,전남,여수시,여수한국병원,여수시 여천체육공원길 10,061-689-9119,34.7612543,127.67505249999999
472,Y,전남,여수시,여수제일병원,여수시 쌍봉로 70,061-689-8119,34.7660227,127.6636158
473,Y,전남,영광군,영광종합병원,전라남도 영광군 영광읍 와룡로 3,061-350-8119,35.2844251,126.49890749999999
474,Y,전남,영광군,영광기독병원,전라남도 영광군 영광읍 신남로 265,061-350-3000,35.2749984,126.51102639999999
475,Y,전남,영광군,영광군보건소,전라남도 영광군 영광읍 신남로4길 17,061-350-5552,35.274388699999996,126.50420120000001
476,Y,전남,영암군,영암병원,전라남도 영암군 영암읍 오리정길 8,061-470-7100,34.794202999999996,126.7008893
477,Y,전남,영암군,영암군보건소,전라남도 영암군 영암읍 오리정길 39,061-470-6536,34.7951587,126.7039514
478,Y,전남,완도군,완도대성병원,전라남도 완도군 완도읍 청해진동로 63,061-553-1234,34.317056099999995,126.7356881
479,Y,전남,완도군,완도군보건의료원,전라남도 완도군 완도읍 농공단지길 34,061-550-6767,34.336213,126.7306702
480,Y,전남,장성군,장성병원,전라남도 장성군 장성읍 역전로 171,061-390-9000,35.3058474,126.78365889999999
481,Y,전남,장성군,장성군보건소,전라남도 장성군 장성읍 청운11길 13,061-390-8333,35.3045128,126.7825232
482,Y,전남,장흥군,장흥종합병원,전라남도 장흥군 장흥읍 흥성로 74 (74),061-862-8300,34.6770898,126.9111921
483,Y,전남,장흥군,장흥군보건소,전라남도 장흥군 장흥읍 흥성로 49,061-860-6481,34.6765124,126.9082131
484,Y,전남,진도군,진도한국병원,전라남도 진도군 진도읍 남문길 48,061-542-7575,34.482431999999996,126.2641881
485,Y,전남,진도군,진도군보건소,전라남도 진도군 진도읍 남동1길 40-9,061-540-6074,34.4803403,126.26294910000001
486,Y,전남,함평군,함평성심병원,전라남도 함평군 함평읍 영수길 132-  ( ),061-324-0001,35.0621885,126.520196
487,Y,전남,함평군,함평군보건소,전라남도 함평군 함평읍 중앙길 54-8,061-320-2417,35.062072300000004,126.52434509999999
488,Y,전남,해남군,해남종합병원,전라남도 해남군 해남읍 해남로 45,061-536-4116,34.5716031,126.61302029999999
489,Y,전남,해남군,해남우리종합병원,전남 해남군 옥천면 해남로 597,061-530-7000,34.5844659,126.64701749999999
490,Y,전남,해남군,해남군보건소,전라남도 해남군 해남읍 해남로 46,061-531-3745,34.569205499999995,126.6167614
491,Y,전남,화순군,화순고려병원,전라남도 화순군 화순읍 충의로 109,061-370-3700,35.056193199999996,126.98961209999997
492,Y,전남,화순군,화순전남대학교병원,전남 화순군 화순읍 서양로 322,061-1899-0000,35.060188000000004,127.00233229999999
493,Y,전남,화순군,화순성심병원,전남 화순군 화순읍 만연로 31,061-370-9114,35.0584176,126.989907
494,Y,전남,화순군,화순군보건소,전라남도 화순군 화순읍 쌍충로 62,061-379-5342,35.0572616,126.98220380000001
495,Y,경북,경산시,세명병원,경상북도 경산시 경안로 208 (중방동),053-819-8500,35.8268603,128.73687759999999
496,Y,경북,경산시,경산중앙병원,경상북도 경산시 경안로 11 (백천동),053-715-0119,35.8083914,128.7422339
497,Y,경북,경산시,경산시 보건소,경상북도 경산시 남매로 158 (중방동),053-810-6314,35.8251741,128.7432169
498,Y,경북,경주시,경주시 보건소,경상북도 경주시 양정로 300 (동천동),054-779-8573,35.8594788,129.224623
499,Y,경북,경주시,경주시 주민건강지원센터,경주시 현곡면 용담로307,054-779-8668,35.8743531,129.1913997
500,Y,경북,고령군,고령군보건소,경북 고령군 대가야읍 왕릉로 56-5 고령군보건소,054-954-1300,35.7251915,128.2648663
501,Y,경북,고령군,고령영생병원,경상북도 고령군 대가야읍 중앙로 33,054-955-2661,35.7300901,128.2721327
502,Y,경북,구미시,구미순천향병원,"경상북도 구미시 1공단로 179 (공단동, (공단동))",054-468-9114,36.1030929,128.3826739
503,Y,경북,구미시,구미차병원,경상북도 구미시 신시로10길 12 (형곡동),054-450-9700,36.1147524,128.3407379
504,N,경북,구미시,구미강동병원,경상북도 구미시 인동20길 46 (진평동),054-453-7575,36.0961415,128.4228503
505,Y,경북,구미시,구미시 구미보건소,경상북도 구미시 선산대로 111 (지산동),054-480-4032,36.1399149,128.3459791
506,Y,경북,군위군 ,군위군보건소,경상북도 군위군 군위읍 군청로 70,054-383-4000,36.2293427,128.56990779999998
507,Y,경북,김천시,김천의료원,경상북도 김천시 모암길 24 (모암동),054-432-8901,36.122644699999995,128.1264564
508,Y,경북,김천시,김천제일병원,경상북도 김천시 신음1길 12 (신음동),054-420-9440,36.1353472,128.1187424
509,Y,경북,김천시,김천시 보건소,경상북도 김천시 시청1길 221 (신음동),054-433-4000,36.139828,128.11367230000002
510,Y,경북,김천시,김천소년교도소 부속의원,경북 김천시 영남대로 1968,054-429-5575,36.1142077,128.1432025
511,Y,경북,문경시,문경제일병원,경상북도 문경시 당교3길 25 (모전동),054-550-7700,36.5843256,128.18918349999998
512,Y,경북,문경시,문경중앙병원,경상북도 문경시 중앙로 117-18 (점촌동),054-555-2011,36.5959632,128.1990696
513,Y,경북,문경시,문경시 보건소,경상북도 문경시 점촌1길 9 (점촌동),054-555-2033,36.596115399999995,128.19751979999998
514,Y,경북,봉화군,봉화군 보건소,경상북도 봉화군 봉화읍 봉화로 1203,054-673-4000,36.8907453,128.741995
515,Y,경북,봉화군,봉화해성병원,경상북도 봉화군 봉화읍 보밑길 3,054-674-0011,36.891620599999996,128.7333926
516,Y,경북,상주시,상주적십자병원,경상북도 상주시 상서문로 53 (남성동),054-534-3501,36.4144603,128.1551675
517,Y,경북,상주시,상주성모병원,경상북도 상주시 냉림서성길 7 (냉림동),054-532-5001,36.420795999999996,128.15997529999999
518,Y,경북,상주시,상주시 보건소,경상북도 상주시 중앙로 111 (무양동),054-535-4000,36.416661399999995,128.15005259999998
519,Y,경북,성주군,성주군보건소 ,경상북도 성주군 성주읍 성밖숲길 12,054-933-2400,35.917146599999995,128.278978
520,Y,경북,안동시,안동시보건소,경북 안동시 서동문로 165,"054-840-5999,5917",36.5671306,128.7300664
521,Y,경북,안동시,안동의료원,경상북도 안동시 태사2길 55 (북문동),054-850-6055,36.5681036,128.7318687
522,Y,경북,안동시,안동병원,경상북도 안동시 앙실로 11 (수상동),054-840-1004,36.5471395,128.7008616
523,Y,경북,안동시,안동성소병원 ,경상북도 안동시 서동문로 99 (금곡동),054-850-8114,36.5690859,128.71883739999998
524,Y,경북,영덕군,영덕아산병원 ,경상북도 영덕군 영해면 영덕로 1621,054-730-0114,36.5243661,129.4024715
525,Y,경북,영덕군,영덕군보건소,경북 영덕군 영덕읍 군청길 53,054-730-6893,36.415079899999995,129.3659681
526,Y,경북,영양군 ,영양군보건소,경북 영양군 영양읍 동서대로 82,054-680-5196,36.6620549,129.11812229999998
527,Y,경북,영양군 ,영양병원,경상북도 영양군 영양읍 동서대로 75,054-682-0727,36.6625188,129.1172504
528,Y,경북,영주시,영주시보건소,경상북도 영주시 시청로1번길 19 (휴천동),054-631-4000,36.8060641,128.6219208
529,Y,경북,영천시,영남대학교 영천병원 ,경상북도 영천시 오수1길 10 (오수동),054-338-9000,35.95721220000001,128.9130753
530,Y,경북,영천시,영천시 보건소,경상북도 영천시 옛군청1길 31 (문내동),054-339-7860,35.9685384,128.9325515
531,Y,경북,예천군,예천군보건소,경상북도 예천군 예천읍 군청길 33,054-650-8616,36.6577847,128.4529666
532,Y,경북,예천군,예천권병원,경상북도 예천군 예천읍 시장로 136,054-654-6611,36.657313599999995,128.4590263
533,Y,경북,울릉군,울릉군보건의료원,경상북도 울릉군 울릉읍 울릉순환로 396-18,054-790-6871,37.489937399999995,130.8985208
534,Y,경북,울진군 ,울진군의료원 ,경상북도 울진군 울진읍 현내항길 71,054-785-7015,36.992749200000006,129.4100665
535,Y,경북,의성군 ,의성군보건소,경상북도 의성군 의성읍 북부길 150,054-830-6660,36.3674889,128.6843647
536,Y,경북,의성군 ,공생병원,경상북도 의성군 의성읍 문소3길 96-0 (공생병원),054-834-3881,36.3543433,128.69470719999998
537,Y,경북,청도군,청도군보건소(치매안심센터),청도군 화양읍 산성강변길 471,"054-370-6566, 2673",35.6585234,128.72276589999998
538,Y,경북,청송군,청송군보건의료원,경상북도 청송군 청송읍 의료원길 19,054-870-7100,36.431060099999996,129.0522753
539,Y,경북,청송군,경북북부제2교도소 부속의원,경북 청송군 진보면 양정길 110,054-870-2575,36.5294507,129.0467064
540,Y,경북,칠곡군 ,칠곡군보건소,경상북도 칠곡군 왜관읍 관문로1길 30,054-973-4000,35.99070220000001,128.4184928
541,N,경북,칠곡군 ,왜관병원,경상북도 칠곡군 왜관읍 군청2길 10,054-971-1002,35.9961354,128.4015608
542,Y,경북,포항시,포항시 북구보건소,경상북도 포항시 북구 삼흥로 98 (장성동),054-270-4114,36.0707245,129.3802775
543,Y,경북,포항시,포항시 남구보건소,경상북도 포항시 남구 동해안로 6119 (인덕동),054-270-4004,35.992436399999995,129.3962274
544,Y,경북,포항시,포항세명 기독병원,경상북도 포항시 남구 포스코대로 351 (대도동),054-275-0005,36.0044506,129.3571834
545,Y,경북,포항시,포항 성모병원,"경상북도 포항시 남구 대잠동길 17 (대잠동, (대잠동))",054-272-0151,36.014831199999996,129.33929089999998
546,Y,경북,포항시,포항의료원,"경상북도 포항시 북구 용흥로 36 (용흥동, (용흥동))",054-247-0551,36.035094099999995,129.3544868
547,Y,경남,거제시 ,의료법인 거붕백병원,경상남도 거제시 계룡로5길 14 (상동동),055-733-0119,34.8726323,128.6268045
548,Y,경남,거제시 ,의료법인 대우병원,경상남도 거제시 두모길 16 (두모동),055-680-8119,34.8722413,128.7217033
549,Y,경남,거제시 ,거제시 보건소,경상남도 거제시 수양로 506 (양정동),055-639-6133,34.891684399999995,128.63658239999998
550,Y,경남,거제시 ,맑은샘병원,경상남도 거제시 연초면 거제대로 4477,055-736-1004,34.8977915,128.64378159999998
551,Y,경남,거창군 ,거창적십자병원,경상남도 거창군 거창읍 중앙로 91,055-944-3251,35.6865089,127.9091208
552,Y,경남,거창군 ,거창군 보건소,경상남도 거창군 거창읍 거함대로 3079 (보건소),055-940-8337,35.6856246,127.9077805
553,Y,경남,고성군 ,고성군 보건소,경상남도 고성군 고성읍 남포로79번길 103-3,055-670-4013,34.9695667,128.31542679999998
554,Y,경남,김해시,김해중앙병원,경상남도 김해시 분성로 94-8 (외동),055-330-6007,35.2294136,128.8700167
555,Y,경남,김해시,조은금강병원,경상남도 김해시 김해대로 1814-37 (삼계동),055-330-0300,35.2623034,128.8615992
556,Y,경남,김해시,갑을장유병원,경상남도 김해시 장유로 167-13 (부곡동),055-310-6114,35.208684999999996,128.8056382
557,Y,경남,김해시,김해시 보건소,경상남도 김해시 분성로 227 (외동),055-330-4483,35.232284299999996,128.8708872
558,Y,경남,남해군 ,의료법인이도의료 재단 남해병원,경상남도 남해군 남해읍 화전로 169,055-863-2201,34.846164,127.89439229999999
559,Y,경남,남해군 ,남해군 보건소,경상남도 남해군 남해읍 선소로 6,055-860-8730,34.844690199999995,127.8987855
560,N,경남,밀양시 ,밀양 윤병원,경상남도 밀양시 삼문중앙로 32 (삼문동),055-354-2200,35.484694999999995,128.7556697
561,Y,경남,밀양시 ,밀양시 보건소,경상남도 밀양시 삼문중앙로 41 (삼문동),055-359-7015,35.4855407,128.7560677
562,Y,경남,사천시,삼천포서울병원,경상남도 사천시 남일로 33 (동금동),055-835-9018,34.9324271,128.0815204
563,Y,경남,사천시,사천시 보건소,경상남도 사천시 용현면 시청로 77,055-831-3620,35.003354099999996,128.06422799999999
564,Y,경남,사천시,의료법인승연의료재단 제일병원,경남 사천시 중앙로136,055-833-4400,34.9371738,128.0794671
565,Y,경남,산청군,산청군보건의료원,경상남도 산청군 산청읍 중앙로 97,055-970-7500,35.4152549,127.8767199
566,Y,경남,양산시 ,양산부산대학교병원,경상남도 양산시 물금읍 금오로 20,055-360-1476,35.326130299999996,129.0048926
567,N,경남,양산시 ,베데스다 병원,양산시 신기로 28,055-384-9911,35.353235,129.04364239999998
568,N,경남,양산시 ,웅상중앙병원,양산시 서창로 59,055-912-1032,35.406374299999996,129.16454869999998
569,Y,경남,양산시 ,양산시 보건소,경상남도 양산시 삽량로 169 (중부동),055-392-5220,35.335754099999996,129.0249831
570,N,경남,의령군 ,의령병원,경상남도 의령군 의령읍 의병로14길 10,055-573-4100,35.3185147,128.25879430000003
571,Y,경남,의령군 ,의령군 보건소,경상남도 의령군 의령읍 의병로8길 16,055-570-4045,35.3182095,128.26032039999998
572,Y,경남,진주시,진주제일병원,진주시 진주대로 885,055-756-2900,35.1793942,128.08997209999998
573,Y,경남,진주시,진주고려병원,진주시 동진로 2,055-751-2525,35.1786102,128.0920617
574,Y,경남,진주시,진주반도병원,진주시 남강로 701,055-749-0679,35.178400599999996,128.0974023
575,Y,경남,진주시,진주복음병원,진주시 진양호로 370,055-749-7119,35.1852364,128.06956549999998
576,Y,경남,진주시,진주세란병원,진주시 진주대로 829,055-760-7575,35.174462,128.0929902
577,Y,경남,진주시,진주한일병원,진주시 범골로 17,055-750-1333,35.166265599999996,128.1286498
578,Y,경남,진주시,진주시 보건소,경상남도 진주시 월아산로 2026 (초전동),055-749-5714,35.214699599999996,128.12298189999998
579,N,경남,창녕군,태황의료재단 한성병원,경상남도 창녕군 창녕읍 교리1길 2,055-530-5000,35.5421395,128.4933873
580,Y,경남,창녕군,창녕군 보건소,경상남도 창녕군 창녕읍 우포2로 1189-35,055-530-6217,35.545304699999996,128.4883897
581,Y,경남,창원시,창원시 창원보건소,경상남도 창원시 의창구 중앙대로162번길 9 (신월동),055-225-5744,35.2276606,128.6854863
582,Y,경남,창원시,SMG연세병원,창원시 마산합포구 3·15대로 76,055-240-7777,35.1863296,128.56161939999998
583,Y,경남,창원시,창원시 마산보건소,"경상남도 창원시 마산합포구 월영동북로 15 (해운동, 마산보건소)",055-225-5944,35.1824015,128.56291660000002
584,Y,경남,창원시,창원시 진해보건소,"경상남도 창원시 진해구 진해대로 1101 (풍호동, 진해보건소)",055-225-6123,35.1352851,128.7187113
585,Y,경남,창원시,연세에스병원,경상남도 창원시 진해구 해원로32번길 13 (이동),055-548-7700,35.1545448,128.6983452
586,Y,경남,창원시,세광병원,경상남도 창원시 진해구 중원동로 55-1 (중앙동),055-540-3700,35.148854799999995,128.66110799999998
587,Y,경남,창원시,삼성창원병원,"경상남도 창원시 마산회원구 팔용로 158 (합성동, 삼성창원병원)",055-233-6121,35.2428993,128.5919073
588,Y,경남,창원시,마산의료원,경상남도 창원시 마산합포구 3·15대로 231 (중앙동3가),055-249-1116,35.1985739,128.568003
589,Y,경남,창원시,창원경상대학교병원,"경상남도 창원시 성산구 삼정자로 11 (성주동, 창원경상대학교병원)","(주)055-214-1000,(야)055-214-2119",35.1987691,128.7081267
590,N,경남,창원시,한마음창원병원,경상남도 창원시 성산구 원이대로682번길 21 (상남동),055-267-2000,35.221030299999995,128.68732319999998
591,N,경남,창원시,창원병원,경상남도 창원시 성산구 창원대로 721 (중앙동),055-280-7777,35.218751499999996,128.67244589999999
592,Y,경남,창원시,창원파티마병원,창원시 의창구 창이대로 45,055-270-1020,35.2371882,128.6457008
593,Y,경남,통영시 ,통영적십자병원,경상남도 통영시 중앙로 97 (서호동),055-644-8901,34.843288,128.4176161
594,Y,경남,통영시 ,통영시 보건소,경상남도 통영시 안개4길 108 (무전동),055-650-6050,34.8597726,128.43201539999998
595,Y,경남,하동군 ,새하동병원,"경상남도 하동군 하동읍 화심길 39, 새하동병원",055-880-4200,35.0829984,127.73878690000001
596,Y,경남,하동군 ,하동군 보건소,경상남도 하동군 하동읍 군청로 31,055-882-4000,35.0666966,127.7529607
597,Y,경남,함안군,영동병원,경상남도 함안군 칠원읍 용산2길 45-13,055-586-2000,35.30899480000001,128.5160151
598,Y,경남,함안군,함안군 보건소,경상남도 함안군 가야읍 중앙남4길 10,055-580-3113,35.2757186,128.410266
599,Y,경남,함양군 ,함양성심병원,경상남도 함양군 함양읍 고운로 70,055-963-4322,35.52028800000001,127.72936460000001
600,Y,경남,함양군 ,함양군 보건소,경상남도 함양군 함양읍 한들로 141,055-960-5334,35.5196535,127.73179890000002
601,Y,경남,합천군 ,삼성합천병원,경상남도 합천군 합천읍 대야로 876,055-933-3322,35.5663406,128.1632898
602,Y,경남,합천군 ,합천군 보건소,경상남도 합천군 합천읍 동서로 39,055-930-3683,35.5684913,128.15581659999998
603,Y,제주,서귀포,서귀포의료원,"제주특별자치도 서귀포시 장수로 47 (동홍동,(동홍동))",064-730-3000,33.256096299999996,126.56306439999999
604,Y,제주,서귀포,서귀포열린병원,제주특별자치도 서귀포시 일주동로 8638 (동홍동),064-762-8001,33.2545394,126.56549899999997
605,Y,제주,제주시,제주한라병원,"제주특별자치도 제주시 도령로 65 (연동, (연동))",064-740-5975,33.489819499999996,126.4851928
606,Y,제주,제주시,한마음병원,"제주특별자치도 제주시 연신로 52 (이도이동,(이도이동))",064-750-9119,33.4963523,126.54623760000001
607,Y,제주,제주시,한국병원,"제주특별자치도 제주시 서광로 193 (삼도일동, (삼도일동))",064-750-0119,33.5003822,126.51678450000001
608,Y,제주,제주시,중앙병원,"제주특별자치도 제주시 월랑로 91-0 (이호이동,중앙병원)",064-786-7000,33.4922645,126.4707256
609,Y,대구,달서구,달서구보건소 관할 자동차 이동형(Drive-thru) 임시선별진료소 ,대구 달서구 학산로 140 달서구노인종합복지관 ,053-667-5618,35.8332726,128.541868
610,Y,대구,달성군,달성군보건소 관할 자동차 이동형(Drive-thru) 임시선별진료소 ,대구 달성군 현풍읍 현풍로6길 5 도깨비시장,053-668-3333,35.695231799999995,128.4454642
611,Y,대구,동구,동구보건소 관할 자동차 이동형(Drive-thru) 임시선별진료소 ,대구 동구 율하동 율하체육공원박주영축구장 ,053-662-3200,35.8598834,128.6933252
612,Y,대구,서구,서구보건소 관할 자동차 이동형(Drive-thru) 임시선별진료소 ,대구 서구 당산로 403 서구 구민운동장 ,053-663-3111,35.8735734,128.5423113